City_ID,City,Country,Max Temp,Current Description,Lat,Lng,Hotel Name
0,Cidreira,BR,63.57,overcast clouds,-30.1811,-50.2056,Hotel Castelo
1,Dingle,PH,75.97,overcast clouds,10.9995,122.6711,SEGAYA PROPERTY
2,Kismayo,SO,77.36,few clouds,-0.3582,42.5454,Agan-Hotel
3,Castro,BR,65.89,overcast clouds,-24.7911,-50.0119,CHACARA BAILLY
5,Praia,CV,79.34,clear sky,14.9215,-23.5087,LT Aparthotel
6,Atuona,PF,76.89,scattered clouds,-9.8,-139.0333,Villa Enata
7,Broken Hill,AU,61.93,overcast clouds,-31.95,141.4333,Royal Exchange Hotel
12,Katsuura,JP,69.87,light rain,35.1333,140.3,Katsuura Hotel Mikazuki
13,Hollins,US,67.08,overcast clouds,37.3413,-79.9431,"Country Inn & Suites by Radisson, Roanoke, VA"
18,Port Augusta,AU,64.6,moderate rain,-32.5,137.7667,Majestic Oasis Apartments
19,Rikitea,PF,68.97,clear sky,-23.1203,-134.9692,People ThankYou
20,Saucillo,MX,70.88,broken clouds,28.0167,-105.2833,Hotel La Posada de San Judas Tadeo
21,Cabo San Lucas,MX,86.18,scattered clouds,22.8909,-109.9124,Hotel Tesoro Los Cabos
23,Erzin,TR,72.21,broken clouds,36.9559,36.2,Artemis Otel
25,Meppel,NL,60.01,overcast clouds,52.6958,6.1944,De Poort Van Drenthe
26,Saint-Philippe,RE,67.59,scattered clouds,-21.3585,55.7679,Le four à pain
28,Faanui,PF,78.12,few clouds,-16.4833,-151.75,Bora-Bora Pearl Beach Resort & Spa
30,Souillac,MU,70.18,few clouds,-20.5167,57.5167,Shanti Maurice Resort & Spa
33,Kavieng,PG,82.17,light rain,-2.5744,150.7967,Nusa Island Retreat
35,Cabedelo,BR,81.27,broken clouds,-6.9811,-34.8339,Pousada Camboinha
37,Rawah,IQ,79.2,few clouds,34.4816,41.9093,عمر
40,Wanning,CN,76.12,overcast clouds,18.8003,110.3967,Paradise Hotel
41,Santa Rosalia,MX,77.63,few clouds,27.3167,-112.2833,Hotel Las Casitas Santa Rosalia
42,Cayenne,GF,86.04,clear sky,4.9333,-52.3333,Hôtel Le Dronmi
46,Lagoa,PT,61.79,light rain,39.05,-27.9833,Casa Das Faias
50,Aljezur,PT,66.25,clear sky,37.3191,-8.8033,Amazigh Hostel
52,Mogadishu,SO,77.83,overcast clouds,2.0371,45.3438,Hotel Juba
53,Biscarrosse,FR,66.15,clear sky,44.3945,-1.1672,Saint Hubert
55,Chechat,IN,69.15,clear sky,24.7667,75.8833,"Shri raghunath palace, hotal & restrorent"
56,Port Hardy,CA,62.78,broken clouds,50.6996,-127.4199,Airport Inn-Port Hardy
58,Gelibolu,TR,60.33,scattered clouds,40.4103,26.6708,Oya Hotel
59,Manokwari,ID,78.8,overcast clouds,-0.8667,134.0833,Swiss Belhotel Manokwari
60,Vila Velha,BR,78.75,few clouds,-20.3297,-40.2925,Hotel Vitória Palace
63,Port Alfred,ZA,60.19,scattered clouds,-33.5906,26.891,The Halyards Hotel
64,Impfondo,CG,72.18,overcast clouds,1.6381,18.0667,Auberge La Place de Jules
66,Jieshi,CN,70.5,light rain,22.8134,115.8257,Yuehai Hotel
67,Avarua,CK,77.05,broken clouds,-21.2078,-159.775,Paradise Inn
69,Kapaa,US,82.47,few clouds,22.0752,-159.319,Sheraton Kauai Coconut Beach Resort
70,Georgetown,MY,81.23,few clouds,5.4112,100.3354,Cititel Penang
73,Cape Town,ZA,64.11,clear sky,-33.9258,18.4232,"Radisson Blu Hotel Waterfront, Cape Town"
74,Necochea,AR,61.81,clear sky,-38.5473,-58.7368,dyd -mar Hotel
75,Marawi,PH,69.85,overcast clouds,7.9986,124.2928,Derogongan Residence
77,Visakhapatnam,IN,78.69,mist,17.69,83.2093,Best Western Ramachandra Hotel
81,Vao,NC,73.04,overcast clouds,-22.6667,167.4833,Hotel Kou-Bugny
82,Basco,PH,79.21,overcast clouds,20.4487,121.9702,Nathaniel's Lodge
84,Sechura,PE,74.88,scattered clouds,-5.5569,-80.8222,Hospedaje Costa Bella
85,Pasni,PK,78.71,scattered clouds,25.2631,63.471,Kashmiri Hotal
87,Naze,JP,67.12,overcast clouds,28.3667,129.4833,Shishime Hotel
88,Martapura,ID,75.29,scattered clouds,-3.4167,114.85,Montana Hotel Syariah
90,Saint-Francois,FR,63.84,clear sky,46.4154,3.9054,Maison Vin d'Hus
91,Labuhan,ID,79.03,moderate rain,-6.8844,112.2051,DoubleFAG
93,Butaritari,KI,80.73,light rain,3.0707,172.7902,Isles Sunset Lodge
94,Lompoc,US,84.02,scattered clouds,34.6391,-120.4579,"Holiday Inn Express Lompoc, an IHG Hotel"
95,Muros,ES,63.84,clear sky,42.7762,-9.0603,Apartment Av. Castelao
97,Victoria,HK,77.05,overcast clouds,22.2855,114.1577,Mini Central
100,Santa Helena,BR,84.34,broken clouds,-2.2311,-45.3,Turi Plaza Hotel
101,Maningrida,AU,81.86,overcast clouds,-12.0667,134.2667,Dhukurrdji Lodge
102,Limoges,FR,64.96,clear sky,45.75,1.3333,La Gratade
103,Zyrardow,PL,62.8,broken clouds,52.0488,20.446,"Aparthotel Stara Przędzalnia - Hotel, Szkolenia, Konferencje, Wesela"
105,Durant,US,68.74,clear sky,33.994,-96.3708,"Holiday Inn Express & Suites Durant, an IHG Hotel"
106,Laguna,US,80.64,clear sky,38.421,-121.4238,"Holiday Inn Express & Suites Elk Grove Central - Hwy 99, an IHG Hotel"
110,Mount Isa,AU,74.97,broken clouds,-20.7333,139.5,ibis Styles Mt Isa Verona
112,Yanam,IN,76.59,overcast clouds,16.7333,82.2167,The Regency Hotel
117,Kutum,SD,75.72,clear sky,14.2,24.6667,Dibbo areaمنطقة دبو
118,Sri Aman,MY,72.59,moderate rain,1.2376,111.4621,Seri Simanggang Hotel
120,Sao Filipe,CV,78.1,overcast clouds,14.8961,-24.4956,Hotel Xaguate
121,Port Elizabeth,ZA,64.69,overcast clouds,-33.918,25.5701,39 On Nile Guest House
123,Bac Lieu,VN,76.06,broken clouds,9.285,105.7244,Khách sạn Sài Gòn Bạc Liêu
124,Acapulco,MX,84.4,light rain,16.8634,-99.8901,HS Hotsson Smart Acapulco
126,Boa Vista,BR,76.98,moderate rain,2.8197,-60.6733,Aipana Plaza Hotel
127,Kruisfontein,ZA,61.88,broken clouds,-34.0033,24.7314,Oyster Bay House Rental
130,Saint-Georges,GD,87.48,few clouds,12.0564,-61.7485,Radisson Grenada Beach Resort
131,Kangaba,ML,78.06,broken clouds,11.9333,-8.4167,CAF (case de l´amitié et de la fraternité)
132,Belz,FR,61.09,broken clouds,47.6751,-3.168,L'Arbre Voyageur
133,Zhuhai,CN,76.78,light rain,22.2769,113.5678,珠海粤财假日酒店
134,Blackwater,AU,70.77,broken clouds,-23.5833,148.8833,Blackwater Motor Inn
136,East London,ZA,67.44,clear sky,-33.0153,27.9116,Tu Casa
138,Ambulu,ID,75.09,overcast clouds,-8.345,113.6058,Hotel Ambulu Jember
139,Buin,CL,71.11,clear sky,-33.7333,-70.75,Paihuen
142,Puerto Ayora,EC,67.55,broken clouds,-0.7393,-90.3518,Finch Bay Galapagos Hotel
144,Barmer,IN,78.96,clear sky,25.75,71.3833,Jain Dharamshala
147,Tual,ID,83.46,overcast clouds,-5.6667,132.75,Grand Vilia Hotel
148,Arraial Do Cabo,BR,76.96,clear sky,-22.9661,-42.0278,Pousada Porto Praia
149,Bathsheba,BB,82.58,clear sky,13.2167,-59.5167,Atlantis Hotel
154,Siniscola,IT,62.15,overcast clouds,40.5719,9.6922,Hotel Sa Tanca E Bore
155,Caravelas,BR,75.18,few clouds,-17.7125,-39.2481,Pousada dos Navegantes
156,Palpa,PE,79.65,clear sky,-14.5336,-75.1856,Palpa Lines
157,Winburg,ZA,63.36,overcast clouds,-28.518,27.0093,Hotel Winburg
158,Ishigaki,JP,74.03,overcast clouds,24.3448,124.1572,Hotel Peace Land Ishigakijima
159,Ponta Do Sol,PT,74.03,light rain,32.6667,-17.1,Hotel do Campo
161,Vanimo,PG,77.63,overcast clouds,-2.6741,141.3028,Vahmoneh Lodge Vanimo
162,Kiunga,PG,73.85,overcast clouds,-6.1219,141.2906,Airport Lodge Kiunga
164,Puerto Baquerizo Moreno,EC,67.95,broken clouds,-0.9,-89.6,Hotel los Algarrobos
167,Carnarvon,AU,62.38,clear sky,-24.8667,113.6333,Hospitality Carnarvon
168,Mahebourg,MU,70.09,few clouds,-20.4081,57.7,Shandrani Beachcomber Resort & Spa
169,Paracale,PH,77.43,overcast clouds,14.2804,122.7881,Waling Waling center Paracale
170,Guerrero Negro,MX,79.12,clear sky,27.9769,-114.0611,"Casa Laguna, Bed & Breakfast"
176,Vaini,TO,76.48,few clouds,-21.2,-175.2,Keleti Beach Resort
177,Bethel,US,64.76,overcast clouds,41.3712,-73.414,Courtyard by Marriott Danbury
182,Presidencia Roque Saenz Pena,AR,61.65,light rain,-26.7852,-60.4388,Hotel Gualok
186,Bilma,NE,82.24,clear sky,18.6853,12.9164,Expeditions Ténére voyages
189,Ballina,AU,63.01,overcast clouds,-28.8667,153.5667,Ramada Hotel & Suites by Wyndham Ballina Byron
190,Half Moon Bay,US,77.92,clear sky,37.4636,-122.4286,"The Ritz-Carlton, Half Moon Bay"
191,Port Hedland,AU,66.25,few clouds,-20.3167,118.5667,The Esplanade Hotel
194,Itarema,BR,79.21,overcast clouds,-2.9248,-39.9167,"Sea Lounge! Bar, Club & Restaurant"
195,Hasaki,JP,61.29,moderate rain,35.7333,140.8333,Inubosaki Kanko Hotel
198,Sala,MA,76.64,few clouds,34.0389,-6.8166,Hôtel Mercure Rabat Sheherazade
199,Sohag,EG,75.25,clear sky,26.557,31.6948,Civil Registry - Sohag 1
200,Lahaina,US,87.8,clear sky,20.8783,-156.6825,Lahaina Shores Beach Resort
201,Port Blair,IN,79.18,overcast clouds,11.6667,92.75,"Welcomhotel By ITC Hotels, Bay Island, Port Blair"
202,Saldanha,ZA,60.85,overcast clouds,-33.0117,17.9442,Blue Bay Lodge
203,San Pedro De Ycuamandiyu,PY,70.77,overcast clouds,-24.0917,-57.0764,Hotel Refugio
204,Morondava,MG,76.05,clear sky,-20.2833,44.2833,La Case Bambou
205,Mackay,AU,78.67,overcast clouds,-21.15,149.2,International Lodge Motel
208,Bontang,ID,76.3,very heavy rain,0.1333,117.5,KOPKAR Hotel Bintang Sintuk
209,Touros,BR,77.83,overcast clouds,-5.1989,-35.4608,INN NEW HORIZON
211,Canaries,ES,66.16,few clouds,28.0,-15.5,Villa del Monte
212,Isangel,VU,75.52,overcast clouds,-19.55,169.2667,Tanna Lodge
213,Fortuna,US,72.93,clear sky,40.5982,-124.1573,Super 8 by Wyndham Fortuna
216,Axim,GH,77.56,broken clouds,4.8699,-2.2405,Axim Beach Resort And Spa
217,Moree,AU,60.22,clear sky,-29.4667,149.85,Molika Springs Motel
218,Bambous Virieux,MU,70.05,few clouds,-20.3428,57.7575,Casa Tia Villa
221,Waingapu,ID,79.27,overcast clouds,-9.6567,120.2641,Pondok Wisata Elim
223,Arroyo,ES,61.59,clear sky,41.6096,-4.7969,Hotel El Jardín de la Abadía
225,Shingu,JP,63.91,overcast clouds,33.7333,135.9833,Shingu UI Hotel
232,Hithadhoo,MV,80.98,overcast clouds,-0.6,73.0833,Scoop Guest House
234,Urucara,BR,78.91,moderate rain,-2.5364,-57.76,Pousada Maria Bonita
235,Trairi,BR,79.45,overcast clouds,-3.2778,-39.2689,janelas do mar
237,Uaua,BR,87.31,broken clouds,-9.8414,-39.4817,Hotel Uauá
238,Ahipara,NZ,60.37,scattered clouds,-35.1667,173.1667,Ahipara Holiday Park
239,Kirando,TZ,75.88,clear sky,-7.4167,30.6,"Lake Shore Lodge, Tanganyika"
241,Cap Malheureux,MU,68.47,scattered clouds,-19.9842,57.6142,Pereybere Hotel & Spa
244,Bitung,ID,76.05,overcast clouds,1.4451,125.1824,K2 Lembeh
247,Gizo,SB,83.21,scattered clouds,-8.103,156.8419,Imagination Island
250,Saint George,US,82.44,clear sky,37.1041,-113.5841,Best Western Plus Abbey Inn
253,Grand Gaube,MU,70.2,scattered clouds,-20.0064,57.6608,Veranda Paul et Virginie Hotel & Spa
255,Kabanjahe,ID,61.39,overcast clouds,3.1001,98.4908,Kos-Kosan wanita muslim bagoes kabanjahe
256,Jerantut,MY,74.26,overcast clouds,3.936,102.3626,Jerantut Hill Resort
257,Kribi,CM,78.42,moderate rain,2.95,9.9167,La Grace Hôtel
259,Coihaique,CL,75.15,clear sky,-45.5752,-72.0662,Diego De Almagro Coyhaique
261,Luwuk,ID,77.65,overcast clouds,-0.9516,122.7875,Hotel Santika Luwuk
262,Bubaque,GW,81.12,overcast clouds,11.2833,-15.8333,"Casa Dora, Bubaque"
265,Barranca,PE,64.87,scattered clouds,-10.75,-77.7667,El Olivar Hospedaje
266,Plettenberg Bay,ZA,61.68,overcast clouds,-34.0527,23.3716,Thanda Vista B&B
267,Cockburn Town,TC,81.52,clear sky,21.4612,-71.1419,Osprey Beach Hotel
268,Wickede,DE,61.66,light rain,51.4833,7.8667,Hotel Waldschlösschen
271,Sabha,LY,70.79,clear sky,27.0377,14.4283,محطة ام الارانب -سبها مواصلات
272,Mayumba,GA,77.58,broken clouds,-3.432,10.6554,LIKWALE LODGE
273,Dharmanagar,IN,73.09,few clouds,24.3667,92.1667,Juri Lodge
276,Los Llanos De Aridane,ES,67.75,clear sky,28.6585,-17.9182,Valle Aridane
277,Kahului,US,87.82,few clouds,20.8947,-156.47,Maui Seaside Hotel
279,Pahrump,US,85.24,clear sky,36.2083,-115.9839,Best Western Pahrump Oasis
283,Galle,LK,77.18,overcast clouds,6.0367,80.217,Amangalla
284,Berberati,CF,68.88,overcast clouds,4.2612,15.7922,MAIRIE DE BERBERATI
288,Bandarbeyla,SO,77.31,clear sky,9.4942,50.8122,JABIR HOTEL
289,Rawson,AR,67.84,few clouds,-43.3002,-65.1023,Hosteria Sampedro
291,Bengkulu,ID,74.98,moderate rain,-3.8004,102.2655,Grage Hotel Bengkulu
292,Namibe,AO,67.57,scattered clouds,-15.1961,12.1522,Hotel Chik Chik Namibe
293,Fairview,US,68.54,broken clouds,40.8126,-73.999,Homewood Suites by Hilton Edgewater-NYC Area
296,Kloulklubed,PW,83.89,overcast clouds,7.0419,134.2556,Storyboard Beach Resort
297,Dok Kham Tai,TH,65.26,scattered clouds,19.1624,99.9934,โรงแรมวีซี ดอกคำใต้ พะเยา
298,Hobyo,SO,78.39,broken clouds,5.3505,48.5268,Halane Hotel and Restaurent
300,Barabai,ID,74.37,overcast clouds,-2.5833,115.3833,HOTEL BOURAQ INDAH PERMAI
302,Bow Island,CA,74.62,clear sky,49.8668,-111.3684,Silver Sage Motel
303,Fare,PF,77.5,light rain,-16.7,-151.0167,Maitai Lapita Village Huahine
305,Bloemhof,ZA,65.1,overcast clouds,-27.6469,25.607,Victory Towers
308,Quesnel,CA,68.5,clear sky,52.9999,-122.5029,Ramada by Wyndham Quesnel
309,Antofagasta,CL,62.19,few clouds,-23.65,-70.4,"Holiday Inn Express Antofagasta, an IHG Hotel"
315,Lillooet,CA,74.23,overcast clouds,50.6856,-121.942,Hotel Victoria
318,Arlit,NE,86.95,clear sky,18.7369,7.3853,Case de Passage De la Prefecture
319,Ribeira Brava,PT,74.03,light rain,32.65,-17.0667,Hotel do Campo
322,Vila Nova De Milfontes,PT,66.25,clear sky,37.7238,-8.7828,Casazul
323,Saint-Joseph,RE,66.58,few clouds,-21.3667,55.6167,"""Plantation Bed and Breakfast"
324,Sorong,ID,79.41,overcast clouds,-0.8833,131.25,Waigo Splash Hotel
325,Salinopolis,BR,80.82,broken clouds,-0.6136,-47.3561,Salinas Park Resort Maçarico AP101
327,Burns Lake,CA,64.24,broken clouds,54.2331,-125.7533,Burns Lake Bed and Breakfast
328,Pacific Grove,US,79.39,clear sky,36.6177,-121.9166,Lovers Point Inn
330,El Prat De Llobregat,ES,74.14,broken clouds,41.3278,2.0947,Hotel Porta Fira
333,Fethiye,TR,73.27,overcast clouds,36.6217,29.1164,Club & Hotel Letoonia
334,Ternate,ID,80.71,overcast clouds,0.8,127.4,Sahid Bela Ternate Hotel
336,Sur,OM,79.07,overcast clouds,22.5667,59.5289,Sur Plaza Hotel
339,Mahenge,TZ,63.75,clear sky,-8.6833,36.7167,Mahenge ulanga
340,Salalah,OM,78.89,clear sky,17.0151,54.0924,"HAMDAN PLAZA HOTEL SALALAH, an HTG Hotel"
343,Carutapera,BR,80.31,few clouds,-1.195,-46.02,Lidera
344,Sinnamary,GF,81.21,clear sky,5.3833,-52.95,ALETHEIA Appartement Sinnamary
345,Portland,US,72.81,smoke,45.5234,-122.6762,Embassy Suites by Hilton Portland Downtown
350,Orange,US,89.29,few clouds,33.7,-117.7675,Meadows
352,Ariquemes,BR,84.56,overcast clouds,-9.9133,-63.0408,Hotel Sol Nascente - Ariquemes - RO
354,Namatanai,PG,80.15,light rain,-3.6667,152.4333,Seagulls Inn Namatani
361,San Jose,US,79.68,scattered clouds,37.3394,-121.895,The Westin San Jose
362,Puerto Narino,CO,80.8,overcast clouds,-3.7703,-70.3831,Eware Refugio Amazonico
363,Rio Grande,BR,62.71,overcast clouds,-32.035,-52.0986,Hotel Atlântico Rio Grande
364,Luocheng,CN,60.82,clear sky,29.3848,104.0286,Luocheng Hotel
365,Huambo,AO,62.15,overcast clouds,-12.7761,15.7392,Residencial Mãesidencial Mãe Lina
367,Mbanza-Ngungu,CD,72.72,broken clouds,-5.25,14.8667,Hotel Full Business
368,Bonthe,SL,77.86,overcast clouds,7.5264,-12.505,Bonthe Holiday Village
370,Meulaboh,ID,75.31,broken clouds,4.1363,96.1285,Kost Pria
374,Eureka,US,77.67,overcast clouds,40.8021,-124.1637,Eureka Inn Trademark By Wyndham
377,San Cristobal,VE,80.78,overcast clouds,7.7669,-72.225,Pirineos
381,Graaff-Reinet,ZA,60.93,clear sky,-32.2522,24.5308,Rietjiesbos Self Catering
382,Palmer,US,61.34,overcast clouds,42.1584,-72.3287,Wedgewood Motel
383,Ruteng,ID,63.01,overcast clouds,-8.6136,120.4721,Hotel FX 72
384,Umm Lajj,SA,83.3,few clouds,25.0213,37.2685,Moon light Furnished Units
385,Hoquiam,US,68.45,overcast clouds,46.9809,-123.8893,Econo Lodge Inn & Suites
386,Barauna,BR,79.14,overcast clouds,-5.08,-37.6167,Pousada Rancho do Sabiá
388,Torbay,CA,60.58,overcast clouds,47.6666,-52.7314,Gallows Cove
392,Tecoanapa,MX,83.86,light rain,16.5167,-98.75,Hotel Manglares
394,San Carlos,VE,83.03,overcast clouds,9.6612,-68.5827,Hotel Paternopoli
396,Pozo Colorado,PY,75.52,light rain,-23.4923,-58.7972,Hospedaje La Norteña
397,Savannakhet,LA,64.99,overcast clouds,16.566,104.751,โรงแรม ริเวอร์ ฟร้อนท์ (Riverfront Hotel)
399,Soe,ID,68.45,overcast clouds,-9.8607,124.284,Dena Hotel
400,Monrovia,LR,77.36,overcast clouds,6.3005,-10.7969,Sunset Inn
402,Lorengau,PG,80.91,overcast clouds,-2.0226,147.2712,Lorengau Harbourside Hotel
403,Tandlianwala,PK,72.27,clear sky,31.0333,73.1333,Mani cloth center home
404,Karratha,AU,72.73,clear sky,-20.7377,116.8463,ibis Styles Karratha
410,Marrakesh,MA,78.87,scattered clouds,31.6315,-8.0083,Les Jardins de La Koutoubia
413,Pisco,PE,64.45,few clouds,-13.7,-76.2167,Hotel San Isidro Oficial
422,Niquero,CU,83.12,broken clouds,20.0431,-77.5828,Islazul Niquero
423,Porto Novo,BJ,78.3,overcast clouds,6.4965,2.6036,Tour Eiffel Hotel Benin
424,Marsh Harbour,BS,80.87,scattered clouds,26.5412,-77.0636,Abaco Beach Resort
426,Nelson Bay,AU,62.11,overcast clouds,-32.7167,152.15,Mantra Nelson Bay
427,Kupang,ID,80.02,overcast clouds,-10.1667,123.5833,Hotel On The Rock by Prasanthi
430,Moanda,GA,69.89,moderate rain,-1.5575,13.2178,Heliconia Stadium Moanda
432,Libertador General San Martin,AR,72.16,overcast clouds,-23.8064,-64.7876,Posada del Sol
434,Puri,IN,77.52,broken clouds,19.8,85.85,OYO 1577 Hotel Shree Hari Grand
435,Ostend,BE,60.35,scattered clouds,51.2234,2.9119,Hotel Cardiff & Afternoon Tea Lounge
437,Cairns,AU,75.11,broken clouds,-16.9167,145.7667,Mantra Trilogy Cairns
438,Tateyama,JP,69.1,light rain,34.9833,139.8667,Tateyama Seaside Hotel
439,Burla,IN,75.24,few clouds,21.5,83.8667,Manoj Kumar Sahoo
440,Tirur,IN,74.39,light rain,10.9,75.9167,Sangamam Residency
441,Tahoua,NE,85.8,clear sky,14.8888,5.2692,Bungalows Guesthouse
442,Along,IN,61.88,clear sky,28.1667,94.7667,Hotel West
445,Ancud,CL,73.22,clear sky,-41.8697,-73.8203,Hotel Arena Gruesa
447,Byron Bay,AU,64.71,light rain,-28.65,153.6167,Backpackers Inn
448,Pitimbu,BR,79.39,overcast clouds,-7.4706,-34.8086,Reserva do Abiaí
449,San Policarpo,PH,78.03,moderate rain,12.1791,125.5072,Agapita M. Nicart
450,Male,MV,80.55,broken clouds,4.1748,73.5089,Hotel Octave Maldives
451,Gogapur,IN,66.65,clear sky,23.55,75.5167,विशाल देवडा
452,Bahia Honda,CU,82.44,scattered clouds,22.9036,-83.1592,Casa Gualberto - Deysi
455,Menongue,AO,64.29,overcast clouds,-14.6585,17.691,Ritz Lauca
458,Santa Isabel,BR,69.51,overcast clouds,-23.3156,-46.2214,Chácara Sombra do Altíssimo
463,Galdar,ES,72.1,overcast clouds,28.147,-15.6502,Hostel Guide
464,Port Macquarie,AU,62.89,overcast clouds,-31.4333,152.9167,Rydges Port Macquarie
465,Tautira,PF,76.21,light rain,-17.7333,-149.15,Pension Oaoa
466,Dosso,NE,84.45,clear sky,13.049,3.1937,Hotel Toubal
467,Maracaibo,VE,84.07,broken clouds,10.6317,-71.6406,Motel Aladdin
468,Abnub,EG,75.34,clear sky,27.2696,31.1511,دوار ال عبد الجواد شرق البلد بابنوب
470,Palizada,MX,88.29,overcast clouds,18.25,-92.0833,Hotel San Joaquín Palizada
475,Willowmore,ZA,62.71,overcast clouds,-33.2926,23.4895,Jumper's Place
478,Padang,ID,76.98,overcast clouds,-0.9492,100.3543,Mercure Padang
480,Nadadores,MX,69.49,overcast clouds,27.05,-101.6,Hacienda Las Catalinas
481,Itoman,JP,73.42,broken clouds,26.1247,127.6694,Southern Beach Hotel & Resort Okinawa
483,Oussouye,SN,79.21,broken clouds,12.485,-16.5469,Auberge du Routard
484,Barra Mansa,BR,70.2,overcast clouds,-22.5442,-44.1714,Ano Bom Palace Hotel
488,Alta Floresta,BR,84.51,overcast clouds,-9.8756,-56.0861,Floresta Amazonica Hotel
489,Colon,PA,84.11,overcast clouds,9.3592,-79.9014,Sand Diamond Hotel
490,Huaquechula,MX,84.74,light rain,18.7667,-98.55,Locales Guadalupe
491,Yeppoon,AU,69.58,few clouds,-23.1333,150.7333,Villa Mar Colina
492,Wladyslawowo,PL,65.93,overcast clouds,54.7909,18.4009,Gwiazda Morza Resort SPA&SPORT
493,Blythe,US,84.04,clear sky,33.6103,-114.5964,Rodeway Inn & Suites
494,Prieska,ZA,72.54,overcast clouds,-29.6641,22.7474,Avenue GuestHouse
495,Pathein,MM,73.53,clear sky,16.7833,94.7333,Pathein Hotel
497,Ogaminana,NG,76.23,overcast clouds,7.5946,6.2248,Billy Guest Inn
498,Ucluelet,CA,64.09,overcast clouds,48.9329,-125.5528,Black Rock Oceanfront Resort
499,Lata,PT,63.07,clear sky,40.1629,-8.3327,Casa Maquia
500,Nhulunbuy,AU,75.81,broken clouds,-12.2333,136.7667,East Arnhem Real Estate
503,Moroni,KM,74.01,few clouds,-11.7022,43.2551,Hotel Les Arcades
504,Inyonga,TZ,77.68,overcast clouds,-6.7167,32.0667,Eden Rock Lodge
506,Kudahuvadhoo,MV,80.6,overcast clouds,2.6708,72.8944,Niyama Private Islands Maldives
508,Lazaro Cardenas,MX,85.05,light rain,17.9583,-102.2,HOTEL QUINTA ANTIGUA
511,Videira,BR,66.76,overcast clouds,-27.0083,-51.1517,Hotel das Videiras
513,Palu,ID,76.37,heavy intensity rain,-0.8917,119.8707,Hotel Santika Palu
514,Mizdah,LY,63.39,clear sky,31.4451,12.9801,محمدالمبروك الاريقط
516,Tatsuno,JP,60.08,clear sky,34.8667,134.55,Hatagoya Tatsuno
517,Savannah Bight,HN,83.43,few clouds,16.45,-85.85,Villa on Dunbar Rock
518,Buritizeiro,BR,84.99,clear sky,-17.3511,-44.9622,Santos Palace Hotel
519,Tolga,DZ,82.08,clear sky,34.7222,5.3785,سجن طولقة
520,Santa Cruz,BO,89.65,few clouds,-17.8,-63.1667,Aviador Hotel Boutique
521,Leiyang,CN,61.2,broken clouds,26.4024,112.8591,Dongyang Hotel
523,Mitsamiouli,KM,75.16,clear sky,-11.3847,43.2844,Foyer ADM
524,Mahibadhoo,MV,81.1,overcast clouds,3.7833,72.9667,Omadhoo Inn
527,Curup,ID,67.17,moderate rain,-3.4667,102.5333,Ayi The Costel
529,Port-Gentil,GA,80.56,thunderstorm,-0.7193,8.7815,Fengshui Residence
530,Kaeo,NZ,61.32,few clouds,-35.1,173.7833,Bushido Lodge
531,Imbituba,BR,65.37,broken clouds,-28.24,-48.6703,Praia Hotel Imbituba
532,Alofi,NU,82.29,scattered clouds,-19.0595,-169.9187,Taloa Heights
533,Coos Bay,US,75.31,clear sky,43.3665,-124.2179,Best Western Holiday Hotel
534,Maumere,ID,80.2,overcast clouds,-8.6199,122.2111,Sylvia Hotel
536,Sabang,ID,77.95,overcast clouds,5.8933,95.3214,Hotel Citra
537,Catalina,US,79.2,scattered clouds,32.5056,-110.9211,Miraval Arizona Resort & Spa
539,Am Timan,TD,76.42,overcast clouds,11.0297,20.2827,Palais du chef Canton Salamt
542,Pangkalanbuun,ID,74.14,overcast clouds,-2.6833,111.6167,Grand Kecubung Hotel
543,San Ramon De La Nueva Oran,AR,70.43,overcast clouds,-23.1322,-64.326,Hotel Residencial Centro
544,Harper,LR,76.86,overcast clouds,4.375,-7.7169,Screensaver
548,Shimoda,JP,64.11,overcast clouds,34.6667,138.95,Shimoda Tokyu Hotel
549,Batouri,CM,69.87,overcast clouds,4.4333,14.3667,Hotel Hollywood
550,Peabiru,BR,75.74,overcast clouds,-23.9128,-52.3431,La visa hotel
551,Alice Springs,AU,65.75,broken clouds,-23.7,133.8833,Desert Palms Alice Springs
553,Dresden,DE,61.99,clear sky,51.0509,13.7383,Hyperion Hotel Dresden am Schloss
554,Fiumicino,IT,69.66,clear sky,41.7675,12.2291,Hotel Al Porticciolo
555,Barcelos,PT,66.85,clear sky,41.5388,-8.6151,Hotel Do Terço
556,Bossangoa,CF,69.37,light rain,6.4926,17.4552,Hotel du tourisme
558,Nantucket,US,64.54,overcast clouds,41.2835,-70.0995,Jared Coffin House
561,Teluk Nibung,ID,77.72,overcast clouds,3.001,99.8164,Hotel Assyifa
564,Puerto Ayacucho,VE,84.22,broken clouds,5.6639,-67.6236,Posada Turistica Manapiare
567,Kokoda,PG,76.69,overcast clouds,-8.8785,147.7407,Daito Guest House
568,Bundaberg,AU,70.21,broken clouds,-24.85,152.35,Takalvan Motel
569,Gwadar,PK,78.76,scattered clouds,25.1216,62.3254,Sadaf Resort
570,Praya,CV,77.54,clear sky,14.9215,-23.5087,LT Aparthotel
576,Sabirabad,AZ,62.28,overcast clouds,40.0095,48.4752,Muğan Park Hotel
577,Jagadhri,IN,67.35,clear sky,30.1667,77.3,Buddha Cafe International
579,Myrtle Beach,US,81.1,broken clouds,33.6891,-78.8867,Bay View Resort Myrtle Beach
581,Saint Pete Beach,US,86.07,scattered clouds,27.7253,-82.7412,Sirata Beach Resort
585,Monte Plata,DO,89.22,clear sky,18.807,-69.784,Hotel Principe Del Desvio
586,Filadelfia,US,68.25,overcast clouds,39.9523,-75.1638,"The Ritz-Carlton, Philadelphia"
588,Evinayong,GQ,68.5,light rain,1.4368,10.5512,Hotel Don Patricio
589,Aiken,US,82.11,broken clouds,33.5835,-81.5998,Aiken Cottages
590,Munchenbuchsee,CH,63.09,broken clouds,47.0218,7.4504,A1 Hotel Restaurant Grauholz AG
591,Sao Joao Da Barra,BR,73.67,overcast clouds,-21.6403,-41.0511,Pousada Porto De Canoas
592,El Doncello,CO,79.95,scattered clouds,1.6782,-75.2847,Colombia
596,Bucerias,MX,87.98,light rain,20.75,-105.3333,Royal Decameron Complex - Puerto Vallarta
597,Liuli,TZ,77.09,few clouds,-11.0833,34.6333,"Puulu Beach,Puulu Village"
600,Pucallpa,PE,82.44,light rain,-8.3791,-74.5539,Hotel Sol de Oriente - Pucallpa
602,Shahr-E Babak,IR,62.85,clear sky,30.1165,55.1186,سلاطین مس و نقره
604,Tabas,IR,73.89,few clouds,33.5959,56.9244,شرکت معماری مهراز شایگان آراد
606,Mutoko,ZW,61.48,few clouds,-17.397,32.2268,Suskwe Lodge Mutoko
607,Pochutla,MX,85.82,light rain,15.7432,-96.4661,Hotel Posada San Jose
609,Coihueco,CL,70.54,scattered clouds,-36.6167,-71.8333,"Frutillares, Coihueco"
610,Bangui,CF,71.37,overcast clouds,4.3612,18.555,SAM HOTEL
611,Maceio,BR,78.24,broken clouds,-9.6658,-35.7353,Hotel Ponta Verde Maceió
613,Innisfail,AU,75.15,overcast clouds,-17.5333,146.0333,Moondarra Motel
615,Camopi,GF,82.8,scattered clouds,3.1655,-52.3158,La pousada
616,Dumai,ID,73.35,moderate rain,1.6833,101.45,Grand Zuri Dumai
618,Ouesso,CG,73.76,overcast clouds,1.6136,16.0517,ABENIE Hotel
619,Nishihara,JP,72.68,broken clouds,26.1842,127.7558,Minshuku Agaihama
621,Lydenburg,ZA,64.4,overcast clouds,-25.0978,30.4597,The Palms Boutique Hotel
622,Dhidhdhoo,MV,78.06,overcast clouds,6.8833,73.1,Dhidhoo beach
624,Boca Do Acre,BR,85.96,overcast clouds,-8.7522,-67.3978,Hotel Sao Pedro
629,Huarmey,PE,66.72,scattered clouds,-10.0681,-78.1522,Hotel Miramar
630,Inhambane,MZ,72.5,broken clouds,-23.865,35.3833,Oceano
631,Resistencia,AR,70.09,light rain,-27.4606,-58.9839,Niyat Urban Hotel
632,Ratnagiri,IN,77.36,overcast clouds,16.9833,73.3,Hotel Landmark
633,Lubawa,PL,60.4,overcast clouds,53.5043,19.7497,Hotel dla psów Jamajka
634,Bitaogan,PH,80.6,moderate rain,6.7684,126.0774,Geronas Beach Resort
635,Ladybrand,ZA,62.91,overcast clouds,-29.1945,27.4574,Accommodation @ Top House Bed and Breakfast
636,Redmond,US,73.35,clear sky,47.674,-122.1215,Seattle Marriott Redmond
637,Phan Thiet,VN,75.58,overcast clouds,10.9333,108.1,Hotel Saigon-PT
638,Cape Canaveral,US,85.06,clear sky,28.4058,-80.6048,Residence Inn by Marriott Cape Canaveral Cocoa Beach
640,Saint-Leu,RE,68.32,scattered clouds,-21.15,55.2833,La Caz Oceane
643,Kavaratti,IN,79.72,overcast clouds,10.5669,72.642,Green leaf
645,Noumea,NC,77.0,overcast clouds,-22.2763,166.4572,Hôtel Le Lagon
646,Dicabisagan,PH,78.21,overcast clouds,17.0818,122.4157,Nancy Montanes Bernardo
651,Tura,IN,67.98,clear sky,25.5198,90.2201,Hotel RIKMAN Continental
652,Piriyapatna,IN,67.73,overcast clouds,12.3397,76.0992,Dhanraj Residency
655,Corinto,GR,64.89,clear sky,37.9407,22.9573,Ephira Hotel
656,Eydhafushi,MV,81.5,overcast clouds,5.1033,73.0708,Soneva Fushi
657,Araceli,PH,80.94,overcast clouds,10.5529,119.9913,JBryan Traveler's Inn
658,Brandon,US,85.1,broken clouds,27.9378,-82.2859,Embassy Suites by Hilton Tampa Brandon
662,Sitrah,BH,86.0,clear sky,26.1547,50.6206,Al Bander resort
664,Salihli,TR,60.31,clear sky,38.4826,28.1477,Ozcelik Hotel
665,Nabire,ID,74.75,overcast clouds,-3.3667,135.4833,Hotel Nusantara I
667,Ponnani,IN,74.52,light rain,10.767,75.9252,Rouba Residency
668,Ostuni,IT,63.59,clear sky,40.7276,17.5764,Hotel Relais La Sommità
669,Azul,AR,68.34,overcast clouds,-36.777,-59.8585,Cabañas Dulcinea
670,Ontario,US,87.87,few clouds,34.0633,-117.6509,Capri Motel
672,Buraydah,SA,72.05,clear sky,26.326,43.975,Mövenpick Qassim
673,Lima,PE,68.9,overcast clouds,-12.0432,-77.0282,Hotel Kamana
681,Guigue,VE,85.82,overcast clouds,10.0853,-67.7792,La vasquereña
683,Cape Coast,GH,78.4,scattered clouds,5.1053,-1.2466,Samrit Hotel
684,Kirakira,SB,82.0,scattered clouds,-10.4544,161.9205,SanBiz Lodge
685,Alugan,PH,77.47,moderate rain,12.2188,125.4808,JM Lodge
686,Santa Isabel Do Rio Negro,BR,79.63,broken clouds,-0.4139,-65.0192,Hotel GSA
690,Altamira,BR,87.89,few clouds,-3.2033,-52.2064,Requinte Hotel
692,Kathu,TH,81.75,moderate rain,7.9178,98.3332,Novotel Phuket Resort
694,Trebisacce,IT,64.22,clear sky,39.8708,16.5312,Hotel Ristorante Pizzeria 111
696,Catalao,BR,83.52,broken clouds,-18.1658,-47.9464,Mara Turismo Hotel
697,Nova Londrina,BR,79.81,overcast clouds,-22.7658,-52.985,HOTEL FELICE
698,Casablanca,MA,73.62,scattered clouds,33.5928,-7.6192,فندق البيت المغربي كازبلانكا
